{
"type": "FeatureCollection",
"name": "scclip",
"crs": { "type": "name", "properties": { "name": "urn:ogc:def:crs:OGC:1.3:CRS84" } },
"features": [
{ "type": "Feature", "properties": { "schoolid": "IA000070", "efclass": "EFS1", "tract": "19013001000", "name": "KITTRELL ELEMENTARY SCHOOL", "address": "1304 OREGON ST", "city": "WATERLOO", "zipcode": "50702", "statea": "IA", "contact": null, "phonenumbe": "(319) 433-2910", "yearbuilt": 1953, "numstories": 0, "cost": 11718.12, "numstudent": 662, "backuppowe": 0, "sheltercap": 0, "sde_sde_hz": 63552.0, "district": null, "kitchen": 0, "latitude": 42.47188074, "longitude": -92.33311904, "comment": "ELEMENTARY AND SECONDARY SCHOOLS" }, "geometry": { "type": "Point", "coordinates": [ -92.333119040999975, 42.471880744000032 ] } },
{ "type": "Feature", "properties": { "schoolid": "IA000105", "efclass": "EFS1", "tract": "19013003002", "name": "HUDSON ELEMENTARY SCHOOL", "address": "136 S WASHINGTON ST", "city": "HUDSON", "zipcode": "50643", "statea": "IA", "contact": null, "phonenumbe": "(319) 988-3239", "yearbuilt": 1962, "numstories": 0, "cost": 7611.47, "numstudent": 430, "backuppowe": 0, "sheltercap": 0, "sde_sde_hz": 41280.0, "district": null, "kitchen": 0, "latitude": 42.4004604, "longitude": -92.45341155, "comment": "ELEMENTARY AND SECONDARY SCHOOLS" }, "geometry": { "type": "Point", "coordinates": [ -92.453411547999963, 42.400460401000032 ] } },
{ "type": "Feature", "properties": { "schoolid": "IA000205", "efclass": "EFS1", "tract": "19013000800", "name": "HIGHLAND ELEMENTARY SCHOOL", "address": "812 IDAHO ST", "city": "WATERLOO", "zipcode": "50703", "statea": "IA", "contact": null, "phonenumbe": "(319) 433-2630", "yearbuilt": 1958, "numstories": 0, "cost": 9894.91, "numstudent": 559, "backuppowe": 0, "sheltercap": 0, "sde_sde_hz": 53664.0, "district": null, "kitchen": 0, "latitude": 42.49601874, "longitude": -92.30610198, "comment": "ELEMENTARY AND SECONDARY SCHOOLS" }, "geometry": { "type": "Point", "coordinates": [ -92.306101984999941, 42.496018744000025 ] } },
{ "type": "Feature", "properties": { "schoolid": "IA000213", "efclass": "EFS1", "tract": "19013001400", "name": "KINGSLEY ELEMENTARY SCHOOL", "address": "201 SUNSET RD", "city": "WATERLOO", "zipcode": "50701", "statea": "IA", "contact": null, "phonenumbe": "(319) 433-2210", "yearbuilt": 1943, "numstories": 0, "cost": 6496.3, "numstudent": 367, "backuppowe": 0, "sheltercap": 0, "sde_sde_hz": 35232.0, "district": null, "kitchen": 0, "latitude": 42.47947718, "longitude": -92.36212194, "comment": "ELEMENTARY AND SECONDARY SCHOOLS" }, "geometry": { "type": "Point", "coordinates": [ -92.362121941999987, 42.47947718000006 ] } },
{ "type": "Feature", "properties": { "schoolid": "IA000217", "efclass": "EFS1", "tract": "19013002200", "name": "LINCOLN ELEMENTARY SCHOOL", "address": "321 W 8TH ST", "city": "CEDAR FALLS", "zipcode": "50613", "statea": "IA", "contact": null, "phonenumbe": "(319) 553-2950", "yearbuilt": 1945, "numstories": 0, "cost": 7381.36, "numstudent": 417, "backuppowe": 0, "sheltercap": 0, "sde_sde_hz": 40032.0, "district": null, "kitchen": 0, "latitude": 42.53182677, "longitude": -92.44924152, "comment": "ELEMENTARY AND SECONDARY SCHOOLS" }, "geometry": { "type": "Point", "coordinates": [ -92.449241521999966, 42.531826773000034 ] } },
{ "type": "Feature", "properties": { "schoolid": "IA000227", "efclass": "EFS1", "tract": "19013001800", "name": "CUNNINGHAM SCHOOL", "address": "1224 MOBILE ST", "city": "WATERLOO", "zipcode": "50703", "statea": "IA", "contact": null, "phonenumbe": "(319) 433-2600", "yearbuilt": 1945, "numstories": 0, "cost": 6726.42, "numstudent": 380, "backuppowe": 0, "sheltercap": 0, "sde_sde_hz": 36480.0, "district": null, "kitchen": 0, "latitude": 42.50879435, "longitude": -92.32145995, "comment": "ELEMENTARY AND SECONDARY SCHOOLS" }, "geometry": { "type": "Point", "coordinates": [ -92.321459950999952, 42.508794354000031 ] } },
{ "type": "Feature", "properties": { "schoolid": "IA000265", "efclass": "EFS1", "tract": "19013000400", "name": "FRED BECKER ELEMENTARY SCHOOL", "address": "1239 SHELDON ST", "city": "WATERLOO", "zipcode": "50701", "statea": "IA", "contact": null, "phonenumbe": "(319) 433-2180", "yearbuilt": 1950, "numstories": 0, "cost": 8514.23, "numstudent": 481, "backuppowe": 0, "sheltercap": 0, "sde_sde_hz": 46176.0, "district": null, "kitchen": 0, "latitude": 42.50153198, "longitude": -92.3725426, "comment": "ELEMENTARY AND SECONDARY SCHOOLS" }, "geometry": { "type": "Point", "coordinates": [ -92.372542602999943, 42.501531979000049 ] } },
{ "type": "Feature", "properties": { "schoolid": "IA000310", "efclass": "EFS1", "tract": "19013002605", "name": "HOLMES JUNIOR HIGH SCHOOL", "address": "505 HOLMES DR", "city": "CEDAR FALLS", "zipcode": "50613", "statea": "IA", "contact": null, "phonenumbe": "(319) 553-2650", "yearbuilt": 1991, "numstories": 0, "cost": 14932.37, "numstudent": 644, "backuppowe": 0, "sheltercap": 0, "sde_sde_hz": 79856.0, "district": null, "kitchen": 0, "latitude": 42.53347103, "longitude": -92.47096017, "comment": "ELEMENTARY AND SECONDARY SCHOOLS" }, "geometry": { "type": "Point", "coordinates": [ -92.470960170999945, 42.533471035000048 ] } },
{ "type": "Feature", "properties": { "schoolid": "IA000325", "efclass": "EFS1", "tract": "19013002000", "name": "ELK RUN EARLY CHILDHOOD CENTER", "address": "316 MCCOY RD", "city": "ELK RUN HEIGHTS", "zipcode": "50707", "statea": "IA", "contact": null, "phonenumbe": "(319) 433-2660", "yearbuilt": 1958, "numstories": 0, "cost": 1194.39, "numstudent": 157, "backuppowe": 0, "sheltercap": 0, "sde_sde_hz": 5495.0, "district": null, "kitchen": 0, "latitude": 42.46745031, "longitude": -92.26319348, "comment": "ELEMENTARY AND SECONDARY SCHOOLS" }, "geometry": { "type": "Point", "coordinates": [ -92.263193476999959, 42.467450306000046 ] } },
{ "type": "Feature", "properties": { "schoolid": "IA000333", "efclass": "EFS1", "tract": "19013002800", "name": "DUNKERTON HIGH SCHOOL", "address": "509 S CANFIELD ST", "city": "DUNKERTON", "zipcode": "50626", "statea": "IA", "contact": null, "phonenumbe": "(319) 822-4295", "yearbuilt": 1964, "numstories": 0, "cost": 8086.17, "numstudent": 242, "backuppowe": 0, "sheltercap": 0, "sde_sde_hz": 37510.0, "district": null, "kitchen": 0, "latitude": 42.56722672, "longitude": -92.15990263, "comment": "ELEMENTARY AND SECONDARY SCHOOLS" }, "geometry": { "type": "Point", "coordinates": [ -92.159902626999951, 42.567226718000029 ] } },
{ "type": "Feature", "properties": { "schoolid": "IA000386", "efclass": "EFS1", "tract": "19013002605", "name": "HELEN A HANSEN ELEMENTARY SCHOOL", "address": "616 HOLMES DR", "city": "CEDAR FALLS", "zipcode": "50613", "statea": "IA", "contact": null, "phonenumbe": "(319) 553-2775", "yearbuilt": 1991, "numstories": 0, "cost": 11293.3, "numstudent": 638, "backuppowe": 0, "sheltercap": 0, "sde_sde_hz": 61248.0, "district": null, "kitchen": 0, "latitude": 42.53197505, "longitude": -92.46851059, "comment": "ELEMENTARY AND SECONDARY SCHOOLS" }, "geometry": { "type": "Point", "coordinates": [ -92.468510585, 42.531975055000032 ] } },
{ "type": "Feature", "properties": { "schoolid": "IA000390", "efclass": "EFS1", "tract": "19013002200", "name": "CEDAR FALLS HIGH SCHOOL", "address": "1015 DIVISION ST", "city": "CEDAR FALLS", "zipcode": "50613", "statea": "IA", "contact": null, "phonenumbe": "(319) 553-2500", "yearbuilt": 1945, "numstories": 0, "cost": 38327.97, "numstudent": 1182, "backuppowe": 0, "sheltercap": 0, "sde_sde_hz": 183210.0, "district": null, "kitchen": 0, "latitude": 42.52932178, "longitude": -92.46129968, "comment": "ELEMENTARY AND SECONDARY SCHOOLS" }, "geometry": { "type": "Point", "coordinates": [ -92.461299675999953, 42.529321782000068 ] } },
{ "type": "Feature", "properties": { "schoolid": "IA000408", "efclass": "EFS1", "tract": "19013002500", "name": "SOUTHDALE ELEMENTARY SCHOOL", "address": "627 ORCHARD DR", "city": "CEDAR FALLS", "zipcode": "50613", "statea": "IA", "contact": null, "phonenumbe": "(319) 553-2900", "yearbuilt": 1971, "numstories": 0, "cost": 9611.69, "numstudent": 543, "backuppowe": 0, "sheltercap": 0, "sde_sde_hz": 52128.0, "district": null, "kitchen": 0, "latitude": 42.50500914, "longitude": -92.43805345, "comment": "ELEMENTARY AND SECONDARY SCHOOLS" }, "geometry": { "type": "Point", "coordinates": [ -92.438053446999959, 42.505009137000059 ] } },
{ "type": "Feature", "properties": { "schoolid": "IA000477", "efclass": "EFS1", "tract": "19013000100", "name": "EAST HIGH SCHOOL", "address": "214 HIGH ST", "city": "WATERLOO", "zipcode": "50703", "statea": "IA", "contact": null, "phonenumbe": "(319) 433-2400", "yearbuilt": 1939, "numstories": 0, "cost": 31939.98, "numstudent": 985, "backuppowe": 0, "sheltercap": 0, "sde_sde_hz": 152675.0, "district": null, "kitchen": 0, "latitude": 42.50203724, "longitude": -92.32916321, "comment": "ELEMENTARY AND SECONDARY SCHOOLS" }, "geometry": { "type": "Point", "coordinates": [ -92.32916321099998, 42.502037238000071 ] } },
{ "type": "Feature", "properties": { "schoolid": "IA000478", "efclass": "EFS1", "tract": "19013001302", "name": "HOOVER MIDDLE SCHOOL", "address": "630 HILLCREST RD", "city": "WATERLOO", "zipcode": "50701", "statea": "IA", "contact": null, "phonenumbe": "(319) 433-2830", "yearbuilt": 1972, "numstories": 0, "cost": 20404.48, "numstudent": 880, "backuppowe": 0, "sheltercap": 0, "sde_sde_hz": 109120.0, "district": null, "kitchen": 0, "latitude": 42.46468785, "longitude": -92.36220141, "comment": "ELEMENTARY AND SECONDARY SCHOOLS" }, "geometry": { "type": "Point", "coordinates": [ -92.362201410999944, 42.464687852000054 ] } },
{ "type": "Feature", "properties": { "schoolid": "IA000545", "efclass": "EFS1", "tract": "19013001600", "name": "LINCOLN ELEMENTARY SCHOOL", "address": "302 CEDAR BEND ST", "city": "WATERLOO", "zipcode": "50703", "statea": "IA", "contact": null, "phonenumbe": "(319) 433-1990", "yearbuilt": 1948, "numstories": 0, "cost": 8708.94, "numstudent": 492, "backuppowe": 0, "sheltercap": 0, "sde_sde_hz": 47232.0, "district": null, "kitchen": 0, "latitude": 42.51925389, "longitude": -92.36324574, "comment": "ELEMENTARY AND SECONDARY SCHOOLS" }, "geometry": { "type": "Point", "coordinates": [ -92.363245743999983, 42.519253885000069 ] } },
{ "type": "Feature", "properties": { "schoolid": "IA000656", "efclass": "EFS1", "tract": "19013002902", "name": "UNION HIGH SCHOOL", "address": "200 ADAMS ST", "city": "LA PORTE CITY", "zipcode": "50651", "statea": "IA", "contact": null, "phonenumbe": "(319) 342-2697", "yearbuilt": 1957, "numstories": 0, "cost": 11394.14, "numstudent": 341, "backuppowe": 0, "sheltercap": 0, "sde_sde_hz": 52855.0, "district": null, "kitchen": 0, "latitude": 42.31481724, "longitude": -92.19869306, "comment": "ELEMENTARY AND SECONDARY SCHOOLS" }, "geometry": { "type": "Point", "coordinates": [ -92.198693055999968, 42.314817244000039 ] } },
{ "type": "Feature", "properties": { "schoolid": "IA000709", "efclass": "EFS1", "tract": "19013002606", "name": "BESS STREETER ALDRICH ELEMENTARY", "address": "2526 ASHWORTH DR", "city": "CEDAR FALLS", "zipcode": "50613", "statea": "IA", "contact": null, "phonenumbe": "(319) 553-2901", "yearbuilt": 1977, "numstories": 0, "cost": 7398.66, "numstudent": 412, "backuppowe": 0, "sheltercap": 0, "sde_sde_hz": 39552.0, "district": null, "kitchen": 0, "latitude": 42.49324957, "longitude": -92.47627752, "comment": "ELEMENTARY AND SECONDARY SCHOOLS" }, "geometry": { "type": "Point", "coordinates": [ -92.47627751999994, 42.493249572000025 ] } },
{ "type": "Feature", "properties": { "schoolid": "IA000728", "efclass": "EFS1", "tract": "19013001200", "name": "WEST HIGH SCHOOL", "address": "425 E RIDGEWAY AVE", "city": "WATERLOO", "zipcode": "50702", "statea": "IA", "contact": null, "phonenumbe": "(319) 433-2700", "yearbuilt": 1954, "numstories": 0, "cost": 55059.98, "numstudent": 1698, "backuppowe": 0, "sheltercap": 0, "sde_sde_hz": 263190.0, "district": null, "kitchen": 0, "latitude": 42.47100067, "longitude": -92.35119358, "comment": "ELEMENTARY AND SECONDARY SCHOOLS" }, "geometry": { "type": "Point", "coordinates": [ -92.351193581999951, 42.471000668000045 ] } },
{ "type": "Feature", "properties": { "schoolid": "IA000748", "efclass": "EFS1", "tract": "19013001302", "name": "LOU HENRY ELEMENTARY SCHOOL", "address": "312 RACHAEL ST", "city": "WATERLOO", "zipcode": "50701", "statea": "IA", "contact": null, "phonenumbe": "(319) 433-2860", "yearbuilt": 1972, "numstories": 0, "cost": 8885.95, "numstudent": 502, "backuppowe": 0, "sheltercap": 0, "sde_sde_hz": 48192.0, "district": null, "kitchen": 0, "latitude": 42.46353299, "longitude": -92.36243432000001, "comment": "ELEMENTARY AND SECONDARY SCHOOLS" }, "geometry": { "type": "Point", "coordinates": [ -92.362434322999945, 42.463532988000054 ] } },
{ "type": "Feature", "properties": { "schoolid": "IA000750", "efclass": "EFS1", "tract": "19013002902", "name": "LA PORTE CITY ELEMENTARY SCHOOL", "address": "515 FILLMORE ST", "city": "LA PORTE CITY", "zipcode": "50651", "statea": "IA", "contact": null, "phonenumbe": "(319) 342-3033", "yearbuilt": 1957, "numstories": 0, "cost": 5405.33, "numstudent": 301, "backuppowe": 0, "sheltercap": 0, "sde_sde_hz": 28896.0, "district": null, "kitchen": 0, "latitude": 42.3083929, "longitude": -92.19002341, "comment": "ELEMENTARY AND SECONDARY SCHOOLS" }, "geometry": { "type": "Point", "coordinates": [ -92.190023404999977, 42.308392895000054 ] } },
{ "type": "Feature", "properties": { "schoolid": "IA000755", "efclass": "EFS1", "tract": "19013002000", "name": "BUNGER MIDDLE SCHOOL", "address": "157 S ROOSEVELT RD", "city": "EVANSDALE", "zipcode": "50707", "statea": "IA", "contact": null, "phonenumbe": "(319) 433-2550", "yearbuilt": 1958, "numstories": 0, "cost": 11639.83, "numstudent": 502, "backuppowe": 0, "sheltercap": 0, "sde_sde_hz": 62248.0, "district": null, "kitchen": 0, "latitude": 42.47166879, "longitude": -92.2749098, "comment": "ELEMENTARY AND SECONDARY SCHOOLS" }, "geometry": { "type": "Point", "coordinates": [ -92.274909796999964, 42.471668787000056 ] } },
{ "type": "Feature", "properties": { "schoolid": "IA000761", "efclass": "EFS1", "tract": "19013002500", "name": "ORCHARD HILL ELEMENTARY SCHOOL", "address": "3909 ROWND ST", "city": "CEDAR FALLS", "zipcode": "50613", "statea": "IA", "contact": null, "phonenumbe": "(319) 553-2465", "yearbuilt": 1971, "numstories": 0, "cost": 7717.68, "numstudent": 436, "backuppowe": 0, "sheltercap": 0, "sde_sde_hz": 41856.0, "district": null, "kitchen": 0, "latitude": 42.50261049, "longitude": -92.42170679, "comment": "ELEMENTARY AND SECONDARY SCHOOLS" }, "geometry": { "type": "Point", "coordinates": [ -92.421706789999973, 42.502610486000037 ] } },
{ "type": "Feature", "properties": { "schoolid": "IA000839", "efclass": "EFS1", "tract": "19013001502", "name": "CENTRAL MIDDLE SCHOOL", "address": "1350 KATOSKI DR", "city": "WATERLOO", "zipcode": "50701", "statea": "IA", "contact": null, "phonenumbe": "(319) 433-2100", "yearbuilt": 1967, "numstories": 0, "cost": 11500.71, "numstudent": 496, "backuppowe": 0, "sheltercap": 0, "sde_sde_hz": 61504.0, "district": null, "kitchen": 0, "latitude": 42.49434008, "longitude": -92.39911933, "comment": "ELEMENTARY AND SECONDARY SCHOOLS" }, "geometry": { "type": "Point", "coordinates": [ -92.399119329999962, 42.494340085000033 ] } },
{ "type": "Feature", "properties": { "schoolid": "IA000853", "efclass": "EFS1", "tract": "19013000200", "name": "IRVING ELEMENTARY SCHOOL", "address": "1115 W 5TH ST", "city": "WATERLOO", "zipcode": "50702", "statea": "IA", "contact": null, "phonenumbe": "(319) 433-2800", "yearbuilt": 1939, "numstories": 0, "cost": 8443.42, "numstudent": 477, "backuppowe": 0, "sheltercap": 0, "sde_sde_hz": 45792.0, "district": null, "kitchen": 0, "latitude": 42.48685104, "longitude": -92.34809383, "comment": "ELEMENTARY AND SECONDARY SCHOOLS" }, "geometry": { "type": "Point", "coordinates": [ -92.348093828999936, 42.486851035000029 ] } },
{ "type": "Feature", "properties": { "schoolid": "IA000864", "efclass": "EFS1", "tract": "19013002400", "name": "CEDAR HEIGHTS ELEMENTARY SCHOOL", "address": "2417 RAINBOW DR", "city": "CEDAR FALLS", "zipcode": "50613", "statea": "IA", "contact": null, "phonenumbe": "(319) 553-2855", "yearbuilt": 1957, "numstories": 0, "cost": 8585.03, "numstudent": 485, "backuppowe": 0, "sheltercap": 0, "sde_sde_hz": 46560.0, "district": null, "kitchen": 0, "latitude": 42.51773459, "longitude": -92.41756977, "comment": "ELEMENTARY AND SECONDARY SCHOOLS" }, "geometry": { "type": "Point", "coordinates": [ -92.417569771999979, 42.517734590000032 ] } },
{ "type": "Feature", "properties": { "schoolid": "IA000886", "efclass": "EFS1", "tract": "19013002301", "name": "PEET JUNIOR HIGH SCHOOL", "address": "525 E SEERLEY BLVD", "city": "CEDAR FALLS", "zipcode": "50613", "statea": "IA", "contact": null, "phonenumbe": "(319) 553-2710", "yearbuilt": 1948, "numstories": 0, "cost": 15859.85, "numstudent": 684, "backuppowe": 0, "sheltercap": 0, "sde_sde_hz": 84816.0, "district": null, "kitchen": 0, "latitude": 42.51506796, "longitude": -92.43964708, "comment": "ELEMENTARY AND SECONDARY SCHOOLS" }, "geometry": { "type": "Point", "coordinates": [ -92.439647075999972, 42.515067962000046 ] } },
{ "type": "Feature", "properties": { "schoolid": "IA000980", "efclass": "EFS1", "tract": "19013000200", "name": "LOWELL ELEMENTARY SCHOOL", "address": "1628 WASHINGTON ST", "city": "WATERLOO", "zipcode": "50702", "statea": "IA", "contact": null, "phonenumbe": "(319) 433-1900", "yearbuilt": 1939, "numstories": 0, "cost": 5487.34, "numstudent": 310, "backuppowe": 0, "sheltercap": 0, "sde_sde_hz": 29760.0, "district": null, "kitchen": 0, "latitude": 42.48460211, "longitude": -92.3319483, "comment": "ELEMENTARY AND SECONDARY SCHOOLS" }, "geometry": { "type": "Point", "coordinates": [ -92.331948299999965, 42.484602113000051 ] } },
{ "type": "Feature", "properties": { "schoolid": "IA000990", "efclass": "EFS1", "tract": "19013002604", "name": "NORTH CEDAR ELEMENTARY SCHOOL", "address": "2419 FERN AVE", "city": "CEDAR FALLS", "zipcode": "50613", "statea": "IA", "contact": null, "phonenumbe": "(319) 553-2810", "yearbuilt": 1961, "numstories": 0, "cost": 4637.69, "numstudent": 262, "backuppowe": 0, "sheltercap": 0, "sde_sde_hz": 25152.0, "district": null, "kitchen": 0, "latitude": 42.55853139, "longitude": -92.45378369, "comment": "ELEMENTARY AND SECONDARY SCHOOLS" }, "geometry": { "type": "Point", "coordinates": [ -92.453783689999966, 42.558531388000063 ] } },
{ "type": "Feature", "properties": { "schoolid": "IA000998", "efclass": "EFS1", "tract": "19013002800", "name": "DUNKERTON ELEMENTARY", "address": "509 S CANFIELD ST", "city": "DUNKERTON", "zipcode": "50626", "statea": "IA", "contact": null, "phonenumbe": "(319) 822-4295", "yearbuilt": 1964, "numstories": 0, "cost": 3340.17, "numstudent": 186, "backuppowe": 0, "sheltercap": 0, "sde_sde_hz": 17856.0, "district": null, "kitchen": 0, "latitude": 42.56766227, "longitude": -92.15951949, "comment": "ELEMENTARY AND SECONDARY SCHOOLS" }, "geometry": { "type": "Point", "coordinates": [ -92.159519484999976, 42.56766226600007 ] } },
{ "type": "Feature", "properties": { "schoolid": "IA001016", "efclass": "EFS1", "tract": "19013003001", "name": "ORANGE ELEMENTARY SCHOOL", "address": "5805 KIMBALL AVE", "city": "WATERLOO", "zipcode": "50701", "statea": "IA", "contact": null, "phonenumbe": "(319) 433-2880", "yearbuilt": 1987, "numstories": 0, "cost": 10433.55, "numstudent": 581, "backuppowe": 0, "sheltercap": 0, "sde_sde_hz": 55776.0, "district": null, "kitchen": 0, "latitude": 42.42740797, "longitude": -92.3578431, "comment": "ELEMENTARY AND SECONDARY SCHOOLS" }, "geometry": { "type": "Point", "coordinates": [ -92.357843099999968, 42.427407967000079 ] } },
{ "type": "Feature", "properties": { "schoolid": "IA001213", "efclass": "EFS1", "tract": "19013000800", "name": "EXPO ALTERNATIVE LEARNING CENTER", "address": "1410 INDEPENDENCE AVE", "city": "WATERLOO", "zipcode": "50703", "statea": "IA", "contact": null, "phonenumbe": "(319) 433-1930", "yearbuilt": 1958, "numstories": 0, "cost": 16115.91, "numstudent": 497, "backuppowe": 0, "sheltercap": 0, "sde_sde_hz": 77035.0, "district": null, "kitchen": 0, "latitude": 42.49773524, "longitude": -92.30634264, "comment": "ELEMENTARY AND SECONDARY SCHOOLS" }, "geometry": { "type": "Point", "coordinates": [ -92.306342638, 42.497735239000065 ] } },
{ "type": "Feature", "properties": { "schoolid": "IA001252", "efclass": "EFS1", "tract": "19013003002", "name": "HUDSON HIGH SCHOOL", "address": "245 S WASHINGTON ST", "city": "HUDSON", "zipcode": "50643", "statea": "IA", "contact": null, "phonenumbe": "(319) 988-4226", "yearbuilt": 1962, "numstories": 0, "cost": 11543.79, "numstudent": 356, "backuppowe": 0, "sheltercap": 0, "sde_sde_hz": 55180.0, "district": null, "kitchen": 0, "latitude": 42.4002507, "longitude": -92.454588, "comment": "ELEMENTARY AND SECONDARY SCHOOLS" }, "geometry": { "type": "Point", "coordinates": [ -92.454588, 42.40025070300004 ] } },
{ "type": "Feature", "properties": { "schoolid": "IA001284", "efclass": "EFS1", "tract": "19013001702", "name": "GEORGE WASHINGTON CARVER ACADEMY", "address": "1505 LOGAN AVE", "city": "WATERLOO", "zipcode": "50703", "statea": "IA", "contact": null, "phonenumbe": "(319) 433-2500", "yearbuilt": 1965, "numstories": 0, "cost": 11268.84, "numstudent": 486, "backuppowe": 0, "sheltercap": 0, "sde_sde_hz": 60264.0, "district": null, "kitchen": 0, "latitude": 42.52168249, "longitude": -92.34018637, "comment": "ELEMENTARY AND SECONDARY SCHOOLS" }, "geometry": { "type": "Point", "coordinates": [ -92.340186365999955, 42.521682488000067 ] } },
{ "type": "Feature", "properties": { "schoolid": "IA001288", "efclass": "EFS1", "tract": "19013002000", "name": "POYNER ELEMENTARY", "address": "1138 CENTRAL AVE", "city": "EVANSDALE", "zipcode": "50707", "statea": "IA", "contact": null, "phonenumbe": "(319) 433-1534", "yearbuilt": 1958, "numstories": 0, "cost": 6673.31, "numstudent": 377, "backuppowe": 0, "sheltercap": 0, "sde_sde_hz": 36192.0, "district": null, "kitchen": 0, "latitude": 42.46843343, "longitude": -92.27615197, "comment": "ELEMENTARY AND SECONDARY SCHOOLS" }, "geometry": { "type": "Point", "coordinates": [ -92.276151965999986, 42.46843343300003 ] } },
{ "type": "Feature", "properties": { "schoolid": "IA001327", "efclass": "EFS1", "tract": "19013002200", "name": "ST PATRICK SCHOOL", "address": "615 WASHINGTON ST", "city": "CEDAR FALLS", "zipcode": "50613", "statea": "IA", "contact": null, "phonenumbe": "(319) 277-6781", "yearbuilt": 1945, "numstories": 0, "cost": 3805.4, "numstudent": 210, "backuppowe": 0, "sheltercap": 0, "sde_sde_hz": 20160.0, "district": null, "kitchen": 0, "latitude": 42.53304038, "longitude": -92.44682975000001, "comment": "ELEMENTARY AND SECONDARY SCHOOLS" }, "geometry": { "type": "Point", "coordinates": [ -92.446829750999939, 42.53304038400006 ] } },
{ "type": "Feature", "properties": { "schoolid": "IA001328", "efclass": "EFS1", "tract": "19013002601", "name": "VALLEY LUTHERAN SCHOOL", "address": "4520 ROWND ST", "city": "CEDAR FALLS", "zipcode": "50613", "statea": "IA", "contact": null, "phonenumbe": "(319) 266-4565", "yearbuilt": 1992, "numstories": 0, "cost": 4106.61, "numstudent": 177, "backuppowe": 0, "sheltercap": 0, "sde_sde_hz": 22125.0, "district": null, "kitchen": 0, "latitude": 42.49762299, "longitude": -92.42240147, "comment": "ELEMENTARY AND SECONDARY SCHOOLS" }, "geometry": { "type": "Point", "coordinates": [ -92.422401469999954, 42.497622992000061 ] } },
{ "type": "Feature", "properties": { "schoolid": "IA001329", "efclass": "EFS1", "tract": "19013002700", "name": "BOSCO CATHOLIC SCHOOL SYSTEM", "address": "405 16TH AVE", "city": "GILBERTVILLE", "zipcode": "50634", "statea": "IA", "contact": null, "phonenumbe": "(319) 296-1692", "yearbuilt": 1962, "numstories": 0, "cost": 6797.95, "numstudent": 293, "backuppowe": 0, "sheltercap": 0, "sde_sde_hz": 36625.0, "district": null, "kitchen": 0, "latitude": 42.41820417, "longitude": -92.21588204, "comment": "ELEMENTARY AND SECONDARY SCHOOLS" }, "geometry": { "type": "Point", "coordinates": [ -92.215882043999954, 42.418204175000028 ] } },
{ "type": "Feature", "properties": { "schoolid": "IA001330", "efclass": "EFS1", "tract": "19013001503", "name": "BLESSED SACRAMENT SCHOOL", "address": "600 STEPHAN AVE", "city": "WATERLOO", "zipcode": "50701", "statea": "IA", "contact": null, "phonenumbe": "(319) 233-7863", "yearbuilt": 1962, "numstories": 0, "cost": 1630.89, "numstudent": 90, "backuppowe": 0, "sheltercap": 0, "sde_sde_hz": 8640.0, "district": null, "kitchen": 0, "latitude": 42.5042089, "longitude": -92.3858181, "comment": "ELEMENTARY AND SECONDARY SCHOOLS" }, "geometry": { "type": "Point", "coordinates": [ -92.38581809599998, 42.504208903000062 ] } },
{ "type": "Feature", "properties": { "schoolid": "IA001331", "efclass": "EFS1", "tract": "19013001301", "name": "CEDAR VALLEY CATHOLIC SCHOOLS", "address": "3231 W 9TH ST", "city": "WATERLOO", "zipcode": "50702", "statea": "IA", "contact": null, "phonenumbe": "(319) 232-1422", "yearbuilt": 1970, "numstories": 0, "cost": 20417.47, "numstudent": 908, "backuppowe": 0, "sheltercap": 0, "sde_sde_hz": 113500.0, "district": null, "kitchen": 0, "latitude": 42.46404352, "longitude": -92.3418666, "comment": "ELEMENTARY AND SECONDARY SCHOOLS" }, "geometry": { "type": "Point", "coordinates": [ -92.341866595999988, 42.46404351700005 ] } },
{ "type": "Feature", "properties": { "schoolid": "IA001332", "efclass": "EFS1", "tract": "19013000200", "name": "SACRED HEART SCHOOL", "address": "620 W 5TH ST", "city": "WATERLOO", "zipcode": "50702", "statea": "IA", "contact": null, "phonenumbe": "(319) 234-6593", "yearbuilt": 1939, "numstories": 0, "cost": 1902.7, "numstudent": 105, "backuppowe": 0, "sheltercap": 0, "sde_sde_hz": 10080.0, "district": null, "kitchen": 0, "latitude": 42.49195727, "longitude": -92.34289159, "comment": "ELEMENTARY AND SECONDARY SCHOOLS" }, "geometry": { "type": "Point", "coordinates": [ -92.342891593, 42.491957271000047 ] } },
{ "type": "Feature", "properties": { "schoolid": "IA001460", "efclass": "EFS1", "tract": "19013002700", "name": "IMMACULATE CONCEPTION-ST JOSEPH SCHOOL", "address": "311 16TH AVE", "city": "GILBERTVILLE", "zipcode": "50634", "statea": "IA", "contact": null, "phonenumbe": "(319) 296-1089", "yearbuilt": 1962, "numstories": 0, "cost": 4291.45, "numstudent": 213, "backuppowe": 0, "sheltercap": 0, "sde_sde_hz": 20448.0, "district": null, "kitchen": 0, "latitude": 42.41749139, "longitude": -92.21602812, "comment": "ELEMENTARY AND SECONDARY SCHOOLS" }, "geometry": { "type": "Point", "coordinates": [ -92.216028121999955, 42.417491393000034 ] } },
{ "type": "Feature", "properties": { "schoolid": "IA001472", "efclass": "EFS1", "tract": "19013001501", "name": "WATERLOO CHRISTIAN SCHOOL", "address": "1307 W RIDGEWAY AVE 1", "city": "WATERLOO", "zipcode": "50701", "statea": "IA", "contact": null, "phonenumbe": "(319) 235-9309", "yearbuilt": 1971, "numstories": 0, "cost": 2383.54, "numstudent": 106, "backuppowe": 0, "sheltercap": 0, "sde_sde_hz": 13250.0, "district": null, "kitchen": 0, "latitude": 42.46932475, "longitude": -92.37787214, "comment": "ELEMENTARY AND SECONDARY SCHOOLS" }, "geometry": { "type": "Point", "coordinates": [ -92.377872141999944, 42.46932475400007 ] } },
{ "type": "Feature", "properties": { "schoolid": "IA001480", "efclass": "EFS1", "tract": "19013001301", "name": "BLESSED MARIA ASSUNTA PALLOTTA MIDDLE...", "address": "3225 W 9TH ST", "city": "WATERLOO", "zipcode": "50702", "statea": "IA", "contact": null, "phonenumbe": "(319) 232-6592", "yearbuilt": 1970, "numstories": 0, "cost": 4258.43, "numstudent": 235, "backuppowe": 0, "sheltercap": 0, "sde_sde_hz": 22560.0, "district": null, "kitchen": 0, "latitude": 42.46419853, "longitude": -92.34236205000001, "comment": "ELEMENTARY AND SECONDARY SCHOOLS" }, "geometry": { "type": "Point", "coordinates": [ -92.342362046999938, 42.464198532000069 ] } },
{ "type": "Feature", "properties": { "schoolid": "IA001536", "efclass": "EFS2", "tract": "19013002500", "name": "THE SALON PROFESSIONAL ACADEMY-CEDAR ...", "address": "1350 COLLEGE SQUARE MALL", "city": "CEDAR FALLS", "zipcode": "50613", "statea": "IA", "contact": null, "phonenumbe": "(319) 260-9995", "yearbuilt": 1971, "numstories": 0, "cost": 1306.69, "numstudent": 40, "backuppowe": 0, "sheltercap": 0, "sde_sde_hz": 7040.0, "district": null, "kitchen": 0, "latitude": 42.51078614, "longitude": -92.43312882, "comment": "COSMETOLOGY AND BARBER SCHOOLS" }, "geometry": { "type": "Point", "coordinates": [ -92.433128822999947, 42.510786143000075 ] } },
{ "type": "Feature", "properties": { "schoolid": "IA001538", "efclass": "EFS2", "tract": "19013001702", "name": "ALLEN COLLEGE", "address": "1990 HEATH ST", "city": "WATERLOO", "zipcode": "50703", "statea": "IA", "contact": null, "phonenumbe": "(319) 226-2000", "yearbuilt": 1965, "numstories": 0, "cost": 43578.46, "numstudent": 656, "backuppowe": 0, "sheltercap": 0, "sde_sde_hz": 251248.0, "district": null, "kitchen": 0, "latitude": 42.53003631, "longitude": -92.34010347, "comment": "COLLEGES, UNIVERSITIES, AND PROFESSIO..." }, "geometry": { "type": "Point", "coordinates": [ -92.34010346599996, 42.530036310000071 ] } },
{ "type": "Feature", "properties": { "schoolid": "IA001593", "efclass": "EFS2", "tract": "19013003001", "name": "HAWKEYE COMMUNITY COLLEGE", "address": "1501 E ORANGE RD", "city": "WATERLOO", "zipcode": "50701", "statea": "IA", "contact": null, "phonenumbe": "(319) 296-2320", "yearbuilt": 1987, "numstories": 0, "cost": 156053.25, "numstudent": 5112, "backuppowe": 0, "sheltercap": 0, "sde_sde_hz": 899712.0, "district": null, "kitchen": 0, "latitude": 42.43000595, "longitude": -92.3305836, "comment": "JUNIOR COLLEGES" }, "geometry": { "type": "Point", "coordinates": [ -92.330583596999986, 42.430005953000034 ] } },
{ "type": "Feature", "properties": { "schoolid": "IA001594", "efclass": "EFS2", "tract": "19013002303", "name": "UNIVERSITY OF NORTHERN IOWA", "address": "1227 W 27TH ST", "city": "CEDAR FALLS", "zipcode": "50614", "statea": "IA", "contact": null, "phonenumbe": "(319) 273-2311", "yearbuilt": 1948, "numstories": 0, "cost": 695993.23, "numstudent": 10477, "backuppowe": 0, "sheltercap": 0, "sde_sde_hz": 4012691.0, "district": null, "kitchen": 0, "latitude": 42.5149248, "longitude": -92.45969442000001, "comment": "COLLEGES, UNIVERSITIES, AND PROFESSIO..." }, "geometry": { "type": "Point", "coordinates": [ -92.459694420999938, 42.514924802000053 ] } },
{ "type": "Feature", "properties": { "schoolid": "IA001604", "efclass": "EFS2", "tract": "19013002301", "name": "LA JAMES INTERNATIONAL COLLEGE-CEDAR ...", "address": "6322 UNIVERSITY AVE", "city": "CEDAR FALLS", "zipcode": "50613", "statea": "IA", "contact": null, "phonenumbe": "(319) 277-2150", "yearbuilt": 1948, "numstories": 0, "cost": 784.01, "numstudent": 24, "backuppowe": 0, "sheltercap": 0, "sde_sde_hz": 4224.0, "district": null, "kitchen": 0, "latitude": 42.51499448, "longitude": -92.43446552, "comment": "COSMETOLOGY AND BARBER SCHOOLS" }, "geometry": { "type": "Point", "coordinates": [ -92.434465519999947, 42.514994475000037 ] } }
]
}
