{
"type": "FeatureCollection",
"name": "electiricpowerfacilities_",
"crs": { "type": "name", "properties": { "name": "urn:ogc:def:crs:OGC:1.3:CRS84" } },
"features": [
{ "type": "Feature", "properties": { "name": "GAS TURBINE (IA)", "address": "WEST 27TH STREET", "city": "CEDAR FALLS", "zipcode": "50613", "owner": "CEDAR FALLS UTILITIES", "contact": "http://www.cfu.net/", "phonenumbe": "NOT AVAILABLE", "usage": null, "yearbuilt": 0, "numstories": 0, "capacity": 43.4, "cost": 49110.14, "latitude": 42.51210512, "longitude": -92.47569577, "comment": "NATURAL GAS FIRED COMBUSTION TURBINE" }, "geometry": { "type": "Point", "coordinates": [ -92.475695769999959, 42.512105121000047 ] } },
{ "type": "Feature", "properties": { "name": "STREETER STATION", "address": "UTILITY PARKWAY", "city": "CEDAR FALLS", "zipcode": "50613", "owner": "CEDAR FALLS UTILITIES", "contact": "http://www.cfu.net/", "phonenumbe": "NOT AVAILABLE", "usage": null, "yearbuilt": 0, "numstories": 0, "capacity": 51.5, "cost": 58275.86, "latitude": 42.52676306, "longitude": -92.43995142, "comment": "CONVENTIONAL STEAM COAL; NATURAL GAS ..." }, "geometry": { "type": "Point", "coordinates": [ -92.439951416999975, 42.526763058000029 ] } },
{ "type": "Feature", "properties": { "name": "LA PORTE", "address": "305 LOCUST ST", "city": "LA PORTE CITY", "zipcode": "50651", "owner": "LA PORTE CITY UTILITIES", "contact": "NOT AVAILABLE", "phonenumbe": "NOT AVAILABLE", "usage": null, "yearbuilt": 0, "numstories": 0, "capacity": 5.4, "cost": 6511.43, "latitude": 42.31589914, "longitude": -92.19274263, "comment": "PETROLEUM LIQUIDS" }, "geometry": { "type": "Point", "coordinates": [ -92.192742632999966, 42.315899139000066 ] } },
{ "type": "Feature", "properties": { "name": "ELECTRIFARM", "address": "3051 W. SHAULIS RD", "city": "WATERLOO", "zipcode": "50701", "owner": "MIDAMERICAN ENERGY CO", "contact": "http://www.midamericanenergy.com/", "phonenumbe": "NOT AVAILABLE", "usage": null, "yearbuilt": 0, "numstories": 0, "capacity": 264.1, "cost": 298847.64, "latitude": 42.44085786, "longitude": -92.41989392000001, "comment": "NATURAL GAS FIRED COMBUSTION TURBINE" }, "geometry": { "type": "Point", "coordinates": [ -92.419893916999968, 42.44085786200003 ] } },
{ "type": "Feature", "properties": { "name": "WATERLOO LUNDQUIST", "address": "3 LAFAYETTE ST.", "city": "WATERLOO", "zipcode": "50703", "owner": "MIDAMERICAN ENERGY CO", "contact": "http://www.midamericanenergy.com/", "phonenumbe": "NOT AVAILABLE", "usage": null, "yearbuilt": 0, "numstories": 0, "capacity": 18.0, "cost": 21704.76, "latitude": 42.506142, "longitude": -92.345543, "comment": "PETROLEUM LIQUIDS" }, "geometry": { "type": "Point", "coordinates": [ -92.345543, 42.506142 ] } },
{ "type": "Feature", "properties": { "name": "UNIVERSITY OF NORTHERN IOWA", "address": "30TH AND NEBRASKA STREETS", "city": "CEDAR FALLS", "zipcode": "50614", "owner": "UNIVERSITY OF NORTHERN...", "contact": "http://www.vpaf.uni.edu/fp/services/p...", "phonenumbe": "NOT AVAILABLE", "usage": null, "yearbuilt": 0, "numstories": 0, "capacity": 7.5, "cost": 9043.65, "latitude": 42.51052004, "longitude": -92.4695266, "comment": "CONVENTIONAL STEAM COAL" }, "geometry": { "type": "Point", "coordinates": [ -92.469526604999942, 42.510520044000032 ] } },
{ "type": "Feature", "properties": { "name": "WASHBURN WIND FARM", "address": "NOT AVAILABLE", "city": "WATERLOO", "zipcode": "50701", "owner": "WASHBURN WIND ENERGY LLC", "contact": "NOT AVAILABLE", "phonenumbe": "NOT AVAILABLE", "usage": null, "yearbuilt": 0, "numstories": 0, "capacity": 70.0, "cost": 102148.2, "latitude": 42.356203, "longitude": -92.387794, "comment": "ONSHORE WIND TURBINE" }, "geometry": { "type": "Point", "coordinates": [ -92.387794, 42.356203 ] } }
]
}
