{
"type": "FeatureCollection",
"name": "policestation_",
"crs": { "type": "name", "properties": { "name": "urn:ogc:def:crs:OGC:1.3:CRS84" } },
"features": [
{ "type": "Feature", "properties": { "policestat": "IA000056", "name": "BLACK HAWK COUNTY SHERIFFS OFFICE / B...", "address": "225 EAST 6TH STREET", "city": "WATERLOO", "zipcode": "50703", "phonenumbe": "(319) 291-2587", "yearbuilt": 1939, "numstories": 0, "cost": 29571.52, "latitude": 42.4976269, "longitude": -92.3339002, "comment": "POLICE PROTECTION" }, "geometry": { "type": "Point", "coordinates": [ -92.33390019999996, 42.497626900000057, 0.0 ] } },
{ "type": "Feature", "properties": { "policestat": "IA000082", "name": "GILBERTVILLE POLICE DEPARTMENT", "address": "14TH AVENUE", "city": "GILBERTVILLE", "zipcode": "50634", "phonenumbe": "(319) 240-8137", "yearbuilt": 1962, "numstories": 0, "cost": 2753.57, "latitude": 42.4163359, "longitude": -92.21508298000001, "comment": "POLICE PROTECTION" }, "geometry": { "type": "Point", "coordinates": [ -92.215082984, 42.416335903000061, 0.0 ] } },
{ "type": "Feature", "properties": { "policestat": "IA000084", "name": "CEDAR FALLS POLICE DEPARTMENT", "address": "220 CLAY STREET", "city": "CEDAR FALLS", "zipcode": "50613", "phonenumbe": "(319) 268-5148", "yearbuilt": 1945, "numstories": 0, "cost": 7510.06, "latitude": 42.5364971, "longitude": -92.447768, "comment": "POLICE PROTECTION" }, "geometry": { "type": "Point", "coordinates": [ -92.447768, 42.536497100000076, 0.0 ] } },
{ "type": "Feature", "properties": { "policestat": "IA000139", "name": "LA PORTE CITY POLICE DEPARTMENT", "address": "202 EAST MAIN STREET", "city": "LA PORTE CITY", "zipcode": "50651", "phonenumbe": "(319) 342-2232", "yearbuilt": 1957, "numstories": 0, "cost": 2753.57, "latitude": 42.3152935, "longitude": -92.1925731, "comment": "POLICE PROTECTION" }, "geometry": { "type": "Point", "coordinates": [ -92.192573099999947, 42.315293500000053, 0.0 ] } },
{ "type": "Feature", "properties": { "policestat": "IA000173", "name": "WATERLOO POLICE DEPARTMENT", "address": "715 MULBERRY STREET", "city": "WATERLOO", "zipcode": "50703", "phonenumbe": "(319) 291-4318", "yearbuilt": 1939, "numstories": 0, "cost": 7510.06, "latitude": 42.4990565, "longitude": -92.3321838, "comment": "POLICE PROTECTION" }, "geometry": { "type": "Point", "coordinates": [ -92.332183799999939, 42.499056500000052, 0.0 ] } },
{ "type": "Feature", "properties": { "policestat": "IA000206", "name": "HUDSON POLICE DEPARTMENT", "address": "525 JEFFERSON STREET", "city": "HUDSON", "zipcode": "50643", "phonenumbe": "(319) 988-3210", "yearbuilt": 1962, "numstories": 0, "cost": 7510.06, "latitude": 42.40721615, "longitude": -92.45520306, "comment": "POLICE PROTECTION" }, "geometry": { "type": "Point", "coordinates": [ -92.455203056999949, 42.407216153000036, 0.0 ] } },
{ "type": "Feature", "properties": { "policestat": "IA000292", "name": "EVANSDALE POLICE DEPARTMENT", "address": "911 EVANS ROAD", "city": "WATERLOO", "zipcode": "50707", "phonenumbe": "(319) 232-6682", "yearbuilt": 1958, "numstories": 0, "cost": 7510.06, "latitude": 42.46474367, "longitude": -92.2867529, "comment": "POLICE PROTECTION" }, "geometry": { "type": "Point", "coordinates": [ -92.286752902999979, 42.464743665000071, 0.0 ] } },
{ "type": "Feature", "properties": { "policestat": "IA000307", "name": "UNIVERSITY OF NORTHERN IOWA PUBLIC SA...", "address": "106 TOWERS CENTER", "city": "CEDAR FALLS", "zipcode": "50613", "phonenumbe": "(319) 273-2712", "yearbuilt": 1948, "numstories": 0, "cost": 7510.06, "latitude": 42.51467385, "longitude": -92.45954749000001, "comment": "POLICE PROTECTION" }, "geometry": { "type": "Point", "coordinates": [ -92.459547486999952, 42.51467385400008, 0.0 ] } },
{ "type": "Feature", "properties": { "policestat": "IA000337", "name": "DUNKERTON POLICE DEPARTMENT", "address": "200 TOWER STREET", "city": "DUNKERTON", "zipcode": "50626", "phonenumbe": "(319) 822-4247", "yearbuilt": 1964, "numstories": 0, "cost": 2753.57, "latitude": 42.56790264, "longitude": -92.15907463000001, "comment": "POLICE PROTECTION" }, "geometry": { "type": "Point", "coordinates": [ -92.15907462499996, 42.567902640000057, 0.0 ] } },
{ "type": "Feature", "properties": { "policestat": "IA000340", "name": "IOWA STATE PATROL DISTRICT 9", "address": "1510 WEST 1ST STREET", "city": "CEDAR FALLS", "zipcode": "50613", "phonenumbe": "(319) 266-2677", "yearbuilt": 1945, "numstories": 0, "cost": 7510.06, "latitude": 42.5373283, "longitude": -92.4637227, "comment": "POLICE PROTECTION" }, "geometry": { "type": "Point", "coordinates": [ -92.463722699999948, 42.53732830000007, 0.0 ] } },
{ "type": "Feature", "properties": { "policestat": "IA000366", "name": "UNIVERSITY OF NORTHERN IOWA POLICE", "address": "102 GILCHRIST HALL", "city": "CEDAR FALLS", "zipcode": "50614", "phonenumbe": "NOT AVAILABLE", "yearbuilt": 1948, "numstories": 0, "cost": 7510.06, "latitude": 42.51258654, "longitude": -92.4596749, "comment": "POLICE PROTECTION" }, "geometry": { "type": "Point", "coordinates": [ -92.459674898999936, 42.51258653800005, 0.0 ] } }
]
}
