{
"type": "FeatureCollection",
"name": "wastewater",
"crs": { "type": "name", "properties": { "name": "urn:ogc:def:crs:OGC:1.3:CRS84" } },
"features": [
{ "type": "Feature", "properties": { "name": "HUDSON CITY OF STP", "address": "1802 SERGEANT RD.", "city": "HUDSON", "zipcode": "50643", "backuppowe": 0, "capacity": 0, "latitude": 42.4213982, "longitude": -92.4424973, "comment": null }, "geometry": { "type": "Point", "coordinates": [ -92.442497299999957, 42.421398200000056 ] } },
{ "type": "Feature", "properties": { "name": "CEDAR FALLS CITY OF STP", "address": "501 EAST 4TH STREET", "city": "CEDAR FALLS", "zipcode": "50613", "backuppowe": 0, "capacity": 0, "latitude": 42.5353012, "longitude": -92.4396973, "comment": null }, "geometry": { "type": "Point", "coordinates": [ -92.439697299999978, 42.535301200000049 ] } },
{ "type": "Feature", "properties": { "name": "WASHBURN AREA-STP BLACK HAWK COUNTY", "address": "US HIGHWAY 218 & FOULK RD", "city": "WASHBURN", "zipcode": "52170", "backuppowe": 0, "capacity": 0, "latitude": 42.4342003, "longitude": -92.2542038, "comment": null }, "geometry": { "type": "Point", "coordinates": [ -92.254203799999971, 42.434200300000043 ] } },
{ "type": "Feature", "properties": { "name": "DEWAR SANITARY DISTRICT STP", "address": "UNKNOWN", "city": "DEWAR", "zipcode": "50623", "backuppowe": 0, "capacity": 0, "latitude": 42.5242996, "longitude": -92.2266006, "comment": null }, "geometry": { "type": "Point", "coordinates": [ -92.226600599999983, 42.524299600000063 ] } },
{ "type": "Feature", "properties": { "name": "EVANSDALE CITY OF STP", "address": "1212 RIVER FORREST ROAD", "city": "EVANSDALE", "zipcode": "50707", "backuppowe": 0, "capacity": 0, "latitude": 42.4617996, "longitude": -92.2977982, "comment": null }, "geometry": { "type": "Point", "coordinates": [ -92.297798199999988, 42.461799600000063 ] } },
{ "type": "Feature", "properties": { "name": "WATERLOO CITY OF STP", "address": "3505 EASTON AVENUE", "city": "WATERLOO", "zipcode": "50702", "backuppowe": 0, "capacity": 0, "latitude": 42.4728012, "longitude": -92.3089981, "comment": null }, "geometry": { "type": "Point", "coordinates": [ -92.30899809999994, 42.472801200000049 ] } },
{ "type": "Feature", "properties": { "name": "DUNKERTON CITY OF STP", "address": "HIGHWAY 281", "city": "DUNKERTON", "zipcode": "50626", "backuppowe": 0, "capacity": 0, "latitude": 42.5788994, "longitude": -92.1622009, "comment": null }, "geometry": { "type": "Point", "coordinates": [ -92.162200899999959, 42.578899400000068 ] } },
{ "type": "Feature", "properties": { "name": "ELK RUN HEIGHTS CITY OF STP", "address": "1620 SOUTH ELK RUN ROAD", "city": "ELK RUN HEIGHTS", "zipcode": "50707", "backuppowe": 0, "capacity": 0, "latitude": 42.4617996, "longitude": -92.2977982, "comment": null }, "geometry": { "type": "Point", "coordinates": [ -92.297798199999988, 42.461799600000063 ] } },
{ "type": "Feature", "properties": { "name": "JANESVILLE CITY OF STP", "address": "UNKNOWN", "city": "JANESVILLE", "zipcode": "50647", "backuppowe": 0, "capacity": 0, "latitude": 42.6335983, "longitude": -92.4717026, "comment": null }, "geometry": { "type": "Point", "coordinates": [ -92.471702599999958, 42.633598300000074 ] } },
{ "type": "Feature", "properties": { "name": "GILBERTVILLE CITY OF STP", "address": "6112 GILBERTVILLE RD. S", "city": "GILBERTVILLE", "zipcode": "50634", "backuppowe": 0, "capacity": 0, "latitude": 42.4113998, "longitude": -92.2115021, "comment": null }, "geometry": { "type": "Point", "coordinates": [ -92.211502099999962, 42.411399800000027 ] } },
{ "type": "Feature", "properties": { "name": "LA PORTE CITY, CITY OF STP", "address": "UNKNOWN", "city": "LA PORTE CITY", "zipcode": "50651", "backuppowe": 0, "capacity": 0, "latitude": 42.3121986, "longitude": -92.188797, "comment": null }, "geometry": { "type": "Point", "coordinates": [ -92.188797, 42.312198600000045 ] } }
]
}
